City_ID,City,Lat,Lng,Max Temp,Humidity,Cloudiness,Wind Speed,Country,Date
0,port-aux-francais,-49.35,70.2167,38.86,70,78,32.77,TF,1706635768
1,vorgashor,67.5833,63.95,7.41,95,100,12.24,RU,1706635769
2,jamestown,42.097,-79.2353,36.99,90,100,11.5,US,1706635557
3,constantia,44.1833,28.65,29.08,71,83,13.35,RO,1706635513
4,yellowknife,62.456,-114.3525,19.92,100,100,15.01,CA,1706635770
5,wailua homesteads,22.0669,-159.378,69.75,88,40,5.75,US,1706635771
6,bredasdorp,-34.5322,20.0403,72.19,67,20,16.69,ZA,1706635772
7,puerto natales,-51.7236,-72.4875,57.65,72,100,3.44,CL,1706635773
8,alice springs,-23.7,133.8833,87.35,20,24,10.36,AU,1706635773
9,badger,64.8,-147.5333,-19.19,72,75,0.0,US,1706635774
10,wijhe,52.3867,6.1347,47.17,92,100,11.01,NL,1706635775
11,northam,51.0333,-4.2167,41.4,81,81,4.81,GB,1706635775
12,micoud,13.8167,-60.9,85.98,76,40,13.8,LC,1706635776
13,presidencia de la plaza,-27.0015,-59.8424,102.06,21,0,3.58,AR,1706635776
14,adamstown,-25.066,-130.1015,73.96,89,100,20.87,PN,1706635777
15,grytviken,-54.2811,-36.5092,42.46,71,31,14.03,GS,1706635778
16,waitangi,-43.9535,-176.5597,61.83,97,100,5.99,NZ,1706635778
17,puerto baquerizo moreno,-0.9,-89.6,81.59,89,100,11.5,EC,1706635779
18,olonkinbyen,70.9221,-8.7187,23.7,83,99,15.05,SJ,1706635519
19,edinburgh of the seven seas,-37.0676,-12.3116,58.68,60,28,16.2,SH,1706635780
20,bethel,41.3712,-73.414,36.52,66,100,3.44,US,1706635781
21,hawaiian paradise park,19.5933,-154.9731,68.9,86,20,4.61,US,1706635781
22,guasdualito,7.2424,-70.7324,93.16,46,0,6.91,VE,1706635782
23,hermanus,-34.4187,19.2345,75.79,68,52,12.48,ZA,1706635782
24,kone,-21.0595,164.8658,76.84,82,85,2.68,NC,1706635783
25,cam ranh,11.9214,109.1591,76.96,78,20,5.75,VN,1706635784
26,desaguadero,-16.5656,-69.0417,58.51,51,92,8.5,PE,1706635784
27,sumenep,-7.0167,113.8667,78.21,88,85,5.97,ID,1706635785
28,whitehorse,60.7161,-135.0538,36.37,80,75,12.66,CA,1706635785
29,isafjordur,66.0755,-23.124,24.84,100,100,3.44,IS,1706635786
30,margaret river,-33.95,115.0667,59.68,87,1,9.95,AU,1706635786
31,fuyu,45.1833,124.8167,0.9,90,100,7.47,CN,1706635787
32,saint-francois,46.4154,3.9054,50.65,77,0,3.44,FR,1706635788
33,puerto ayora,-0.7393,-90.3518,87.76,75,77,11.07,EC,1706635788
34,smithers,54.7804,-127.1743,39.52,81,75,8.05,CA,1706635493
35,ghadamis,30.1337,9.5007,58.51,35,43,8.41,LY,1706635789
36,puerto deseado,-47.7503,-65.8938,71.67,41,52,20.33,AR,1706635790
37,ancud,-41.8697,-73.8203,62.78,65,0,8.34,CL,1706635790
38,urengoy,65.9667,78.3667,-3.66,95,74,14.7,RU,1706635790
39,papatowai,-46.5619,169.4708,51.35,92,31,9.91,NZ,1706635791
40,inarajan village,13.2736,144.7484,79.39,82,100,24.45,GU,1706635792
41,gao,16.6362,1.637,83.03,9,15,12.15,ML,1706635792
42,st. john's,47.5649,-52.7093,23.79,79,100,21.85,CA,1706635793
43,heunghae,36.1125,129.3522,38.37,82,65,4.41,KR,1706635793
44,atafu village,-8.5421,-172.5159,84.38,70,88,4.79,TK,1706635794
45,lao cai,22.4833,103.95,60.22,96,21,1.03,VN,1706635662
46,la passe,45.5549,-0.8967,59.23,82,28,2.17,FR,1706635795
47,starodub,52.5844,32.7633,26.51,91,100,7.81,RU,1706635795
48,tongliao,43.6125,122.2653,2.8,90,100,7.16,CN,1706635796
49,udachny,66.4167,112.4,-22.09,100,85,2.82,RU,1706635796
50,iqaluit,63.7506,-68.5145,-4.27,70,75,9.22,CA,1706635797
51,khandyga,62.6667,135.6,-39.24,99,99,2.06,RU,1706635797
52,minas de marcona,-15.2119,-75.1103,75.07,59,98,15.5,PE,1706635798
53,utrik,11.2278,169.8474,78.75,78,100,20.62,MH,1706635798
54,taltal,-25.4,-70.4833,72.91,69,25,6.71,CL,1706635799
55,adani,6.7397,7.0112,99.14,16,92,1.9,NG,1706635799
56,jayapura,-2.5333,140.7,76.39,90,69,4.61,ID,1706635800
57,kavaratti,10.5669,72.642,82.49,65,24,9.28,IN,1706635800
58,bel ombre,-4.6167,55.4167,84.04,74,20,0.0,SC,1706635801
59,i-n-salah,27.1935,2.4607,68.32,23,0,18.7,DZ,1706635802
60,blackmans bay,-43.0167,147.3167,59.13,77,58,5.77,AU,1706635805
61,mouila,-1.8685,11.0559,75.47,97,96,3.18,GA,1706635806
62,luderitz,-26.6481,15.1594,68.79,78,26,14.05,NA,1706635807
63,pangody,65.85,74.4859,-3.35,94,27,16.84,RU,1706635807
64,tolanaro,-25.0319,46.9987,77.07,78,40,11.5,MG,1706635808
65,ushuaia,-54.8,-68.3,56.86,58,75,13.8,AR,1706635809
66,port mathurin,-19.6833,63.4167,82.02,77,100,19.8,MU,1706635809
67,wenatchee,47.4235,-120.3103,52.12,97,100,3.44,US,1706635810
68,maiori,40.6485,14.6407,52.79,66,1,1.74,IT,1706635810
69,shirvan,39.9509,48.8994,38.37,79,100,1.9,AZ,1706635751
70,bilibino,68.0546,166.4372,-26.95,99,100,1.9,RU,1706635812
71,douz,33.4663,9.0203,58.51,47,2,2.86,TN,1706635813
72,albany,42.6001,-73.9662,33.39,84,92,6.11,US,1706635813
73,yashan,22.1975,109.9419,63.99,97,70,1.25,CN,1706635814
74,susuman,62.7833,148.1667,-33.02,100,99,0.04,RU,1706635630
75,petropavlovsk-kamchatsky,53.0452,158.6483,4.46,94,75,6.71,RU,1706635815
76,palikir - national government center,6.9248,158.1611,77.74,73,100,5.75,FM,1706635816
77,saint-pierre,-21.3393,55.4781,78.48,94,100,2.3,RE,1706635817
78,remire-montjoly,4.9167,-52.2667,87.84,70,75,14.97,GF,1706635817
79,thompson,55.7435,-97.8558,33.96,86,40,10.36,CA,1706635818
80,stewartville,43.8555,-92.4885,37.35,87,100,14.97,US,1706635522
81,hobyo,5.3505,48.5268,78.1,77,42,16.55,SO,1706635819
82,longyearbyen,78.2186,15.6401,24.64,68,75,16.11,SJ,1706635820
83,lompoc,34.6391,-120.4579,59.85,70,0,6.91,US,1706635820
84,bandar-e anzali,37.4727,49.4622,42.91,90,100,2.48,IR,1706635821
85,nuku'alofa,-21.1333,-175.2,79.14,100,75,1.14,TO,1706635822
86,dukhovnitskoye,52.4828,48.2137,34.38,86,99,13.62,RU,1706635823
87,tocopilla,-22.092,-70.1979,76.86,69,14,11.48,CL,1706635823
88,san sebastian de la gomera,28.0916,-17.1133,79.16,23,0,4.61,ES,1706635825
89,alofi,-19.0595,-169.9187,81.64,88,86,12.28,NU,1706635825
90,yangliuqing,39.1375,116.9997,22.95,75,3,5.73,CN,1706635827
91,ibarreta,-25.2144,-59.8585,109.53,16,1,1.74,AR,1706635543
92,sisimiut,66.9395,-53.6735,-11.38,82,63,13.67,GL,1706635828
93,fale old settlement,-9.3852,-171.2468,84.76,73,79,5.46,TK,1706635830
94,gudiyatham,12.95,78.8667,67.59,92,59,3.36,IN,1706635830
95,port alfred,-33.5906,26.891,71.19,87,100,1.99,ZA,1706635831
96,port lincoln,-34.7333,135.8667,60.91,70,22,11.72,AU,1706635832
97,georgetown,5.4112,100.3354,82.33,72,20,9.22,MY,1706635295
98,minbu,20.1833,94.8833,65.62,38,61,3.42,MM,1706635833
99,eraan,9.0629,117.7016,76.77,87,84,3.0,PH,1706635834
100,tazovsky,67.4667,78.7,-2.49,93,85,16.37,RU,1706635835
101,sinop,41.7711,34.8709,36.03,95,94,1.77,TR,1706635836
102,barpeta road,26.5028,90.9694,58.21,57,0,4.79,IN,1706635837
103,haiku-pauwela,20.9219,-156.3051,72.18,89,40,13.8,US,1706635838
104,guarapari,-20.6667,-40.4975,85.89,86,92,6.04,BR,1706635839
105,iskateley,67.6803,53.1512,27.01,93,98,15.01,RU,1706635839
106,rabo de peixe,37.8,-25.5833,63.99,99,75,13.8,PT,1706635840
107,vilhena,-12.7406,-60.1458,88.02,58,40,8.05,BR,1706635840
108,bamboo flat,11.7,92.7167,78.89,89,20,2.3,IN,1706635841
109,crotone,39.0851,17.1178,49.95,57,0,11.5,IT,1706635842
110,kodiak,57.79,-152.4072,2.71,60,0,3.44,US,1706635842
111,fort bragg,35.139,-79.006,52.92,51,0,8.05,US,1706635598
112,pandan,14.0453,124.1694,77.32,81,86,13.85,PH,1706635843
113,wasaga beach,44.5168,-80.0164,34.52,87,100,1.01,CA,1706635844
114,antalaha,-14.9003,50.2788,77.29,86,91,10.0,MG,1706635844
115,pierre,44.3683,-100.351,37.27,84,0,4.61,US,1706635493
116,leeton,-34.5667,146.4,68.09,38,0,6.96,AU,1706635845
117,lebu,-37.6167,-73.65,65.44,63,0,14.54,CL,1706635846
118,preobrazheniye,42.9019,133.9064,24.55,72,97,5.57,RU,1706635847
119,hadibu,12.65,54.0333,76.98,77,64,9.28,YE,1706635847
120,keflavik,64.0049,-22.5624,30.63,69,75,21.85,IS,1706635848
121,port elizabeth,-33.918,25.5701,75.09,75,20,4.61,ZA,1706635556
122,tasqala,51.1167,50.3167,28.09,94,100,14.65,KZ,1706635849
123,college,64.8569,-147.8028,-19.88,64,75,0.0,US,1706635850
124,sarmiento,-45.5882,-69.07,79.5,22,2,23.67,AR,1706635850
125,gagarin,55.5529,34.9954,28.17,97,100,3.15,RU,1706635851
126,tura,25.5198,90.2201,57.88,43,0,3.56,IN,1706635851
127,grande prairie,55.1667,-118.8027,41.18,70,20,16.11,CA,1706635852
128,ilulissat,69.2167,-51.1,-9.38,54,40,20.71,GL,1706635852
129,beringen,51.0507,5.2216,49.59,75,100,11.5,BE,1706635853
130,tippi,7.2,35.45,69.87,76,88,3.29,ET,1706635854
131,fisterra,42.9049,-9.2629,61.75,74,100,6.91,ES,1706635854
132,farasan,16.7022,42.1183,78.67,77,92,15.43,SA,1706635855
133,enewetak,11.3474,162.3373,79.56,71,84,20.02,MH,1706635856
134,khabarovsk,48.4808,135.0928,-9.6,70,0,11.18,RU,1706635857
135,darwin,-12.4611,130.8418,78.78,92,40,3.44,AU,1706635857
136,dikhil,11.5,42.1667,75.56,67,50,6.64,DJ,1706635858
137,tiksi,71.6872,128.8694,-19.25,99,55,5.08,RU,1706635858
138,stanley,54.868,-1.6985,41.52,85,20,5.75,GB,1706635859
139,uturoa,-16.7333,-151.4333,82.9,73,96,2.35,PF,1706635860
140,punta arenas,-53.15,-70.9167,60.82,82,100,11.5,CL,1706635728
141,mersing,2.4312,103.8405,80.51,78,20,10.36,MY,1706635861
142,portales,34.1862,-103.3344,58.93,28,52,1.03,US,1706635862
143,yibin,28.7667,104.6238,49.01,78,100,0.72,CN,1706635862
144,galle,6.0367,80.217,78.73,83,29,0.78,LK,1706635863
145,hilo,19.7297,-155.09,75.27,82,20,4.61,US,1706635864
146,turpan,42.9333,89.1667,30.09,45,100,0.58,CN,1706635864
147,hamilton,39.1834,-84.5333,36.23,89,100,12.66,US,1706635666
148,dudinka,69.4058,86.1778,1.62,87,99,22.44,RU,1706635624
149,samtse,26.899,89.0995,56.66,63,62,6.64,BT,1706635866
150,port augusta,-32.5,137.7667,63.54,63,0,21.63,AU,1706635867
151,gizo,-8.103,156.8419,79.36,86,100,15.35,SB,1706635868
152,el bayadh,33.6832,1.0193,53.49,37,100,1.36,DZ,1706635868
153,brokopondo,4.75,-55.1667,87.3,57,60,5.08,SR,1706635869
154,antonio enes,-16.2325,39.9086,78.67,80,92,6.76,MZ,1706635869
155,abatskoye,56.2875,70.4555,-0.63,99,82,7.34,RU,1706635870
156,okhotsk,59.3833,143.3,-4.7,80,100,8.97,RU,1706635870
157,walvis bay,-22.9575,14.5053,85.15,37,4,17.27,NA,1706635871
158,colonia,50.9333,6.95,52.59,72,100,12.66,DE,1706635872
159,kyosai,34.8503,128.5886,40.96,78,100,3.04,KR,1706635872
160,kavieng,-2.5744,150.7967,82.9,78,100,10.98,PG,1706635873
161,arraial do cabo,-22.9661,-42.0278,87.76,74,0,11.5,BR,1706635873
162,laihia,62.9761,22.0114,31.01,86,0,3.44,FI,1706635874
163,jinchang,38.4953,102.1739,27.18,33,100,2.06,CN,1706635875
164,gadzhiyevo,69.2551,33.3362,38.17,76,97,34.36,RU,1706635876
165,kolwezi,-10.7148,25.4667,65.21,92,51,4.43,CD,1706635876
166,isangel,-19.55,169.2667,75.18,81,97,0.58,VU,1706635877
167,yigo village,13.5361,144.8886,77.74,75,75,19.57,GU,1706635878
168,broken hill,-31.95,141.4333,66.22,40,0,21.56,AU,1706635878
169,waingapu,-9.6567,120.2641,77.47,84,72,5.5,ID,1706635879
170,boda,4.3189,17.4695,82.78,19,69,2.06,CF,1706635880
171,woolgoolga,-30.1106,153.2007,72.05,76,79,1.19,AU,1706635881
172,qaqortoq,60.7167,-46.0333,-7.38,76,5,8.21,GL,1706635882
173,head of westport,41.6209,-71.062,32.05,78,100,11.5,US,1706635882
174,ebon,4.582,168.6964,79.29,82,100,21.45,MH,1706635883
175,segarcea,44.1,23.75,36.68,66,5,3.49,RO,1706635884
176,hithadhoo,-0.6,73.0833,81.95,77,68,7.61,MV,1706635885
177,chegdomyn,51.1167,133.0167,-21.78,100,100,0.85,RU,1706635885
178,janeng,-25.4167,25.55,78.44,54,99,9.46,BW,1706635886
179,fort irwin,35.2627,-116.6848,49.82,71,0,0.0,US,1706635887
180,nishinoomote,30.7333,131.0,61.97,84,100,14.18,JP,1706635887
181,buka,40.8108,69.1986,35.19,86,83,4.97,UZ,1706635888
182,itaporanga,-7.3044,-38.1503,99.34,24,0,4.52,BR,1706635889
183,anadyr,64.75,177.4833,-19.7,76,40,2.24,RU,1706635890
184,dzilam gonzalez,21.2833,-88.9333,70.59,52,100,4.99,MX,1706635891
185,cheney,47.4874,-117.5758,36.0,96,100,5.75,US,1706635891
186,lata,40.1629,-8.3327,55.83,73,99,2.17,PT,1706635892
187,ulanhot,46.0833,122.0833,-5.04,97,97,4.76,CN,1706635892
188,vilyuchinsk,52.9306,158.4028,5.94,79,95,8.12,RU,1706635893
189,shanhaiguan,39.9988,119.7564,28.49,80,56,6.04,CN,1706635894
190,yanchep,-31.55,115.6833,74.95,55,0,7.31,AU,1706635894
191,conceicao da barra,-18.5933,-39.7322,85.41,70,99,10.16,BR,1706635665
192,brandywine,38.6968,-76.8477,43.45,69,100,5.75,US,1706635895
193,linhares,-19.3911,-40.0722,85.32,78,100,5.1,BR,1706635896
194,anna regina,7.2644,-58.5077,82.31,73,86,11.23,GY,1706635896
195,caraballeda,10.6112,-66.8522,95.86,48,41,5.75,VE,1706635897
196,west island,-12.1568,96.8225,82.38,69,14,5.75,CC,1706635898
197,severo-yeniseyskiy,60.3725,93.0408,-14.42,98,94,4.0,RU,1706635898
198,xique xique,-10.8217,-42.7311,85.14,55,94,1.66,BR,1706635899
199,polyarnyy,69.1989,33.4478,38.53,76,99,32.7,RU,1706635900
200,tazacorte,28.629,-17.9293,68.97,73,0,3.44,ES,1706635900
201,ta`u,-14.2336,-169.5144,83.3,77,96,5.75,AS,1706635901
202,cidreira,-30.1811,-50.2056,79.25,60,15,11.83,BR,1706635901
203,sol'-iletsk,51.1631,54.9918,23.09,96,100,7.45,RU,1706635902
204,idri,27.5,13.2667,53.15,34,13,10.58,LY,1706635902
205,sitka,57.0531,-135.33,39.09,81,100,17.27,US,1706635903
206,crane,31.3974,-102.3501,60.96,37,6,6.22,US,1706635904
207,arias,-33.6441,-62.4027,101.39,17,0,8.97,AR,1706635905
208,argo,37.6333,22.7333,38.97,93,87,6.49,GR,1706635905
209,kondopoga,62.2057,34.2614,31.69,89,12,8.99,RU,1706635906
210,sijunjung,-0.6876,100.9537,73.56,96,100,0.65,ID,1706635906
211,east london,-33.0153,27.9116,74.34,83,100,10.36,ZA,1706635907
212,invercargill,-46.4,168.35,48.02,93,55,1.99,NZ,1706635898
213,nalut,30.3333,10.85,52.54,43,8,10.16,LY,1706635908
214,puerto leguizamo,-0.1934,-74.7819,95.86,40,94,1.81,CO,1706635908
215,saipan,15.1355,145.701,77.7,65,100,17.27,MP,1706635495
216,martuk,50.7475,56.5056,19.71,96,100,6.93,KZ,1706635910
217,quellon,-43.1167,-73.6167,65.5,59,10,7.14,CL,1706635910
218,kamaishi,39.2667,141.8833,36.03,75,5,4.54,JP,1706635911
219,champerico,14.3,-91.9167,91.94,64,7,9.86,GT,1706635911
220,rio grande,-32.035,-52.0986,82.51,58,2,14.88,BR,1706635801
221,live oak,36.9836,-121.9805,64.83,73,0,1.99,US,1706635913
222,laguna,38.421,-121.4238,66.09,84,0,3.44,US,1706635913
223,kruisfontein,-34.0033,24.7314,72.88,86,100,7.45,ZA,1706635914
224,papao,-17.75,-149.55,80.28,81,100,3.71,PF,1706635915
225,talnakh,69.4865,88.3972,1.2,79,99,11.36,RU,1706635915
226,vila do maio,15.1333,-23.2167,81.39,66,7,13.29,CV,1706635916
227,lazaro cardenas,17.9583,-102.2,82.72,61,100,2.93,MX,1706635748
228,zelenogorskiy,55.0333,87.0,-8.93,100,100,2.55,RU,1706635917
229,mawu,29.5923,107.3139,44.67,86,90,0.65,CN,1706635917
230,cold lake,54.4502,-110.2017,28.35,93,100,8.05,CA,1706635918
231,saint-louis,16.3333,-15.0,91.04,7,36,9.44,SN,1706635918
232,tarko-sale,64.9225,77.785,-5.3,95,16,15.77,RU,1706635919
233,harstad,68.799,16.5293,42.19,89,100,51.0,NO,1706635920
234,san patricio,28.017,-97.5169,65.91,54,100,1.7,US,1706635741
235,gejiu,23.306,103.1635,42.75,96,26,3.94,CN,1706635921
236,hasaki,35.7333,140.8333,36.0,63,74,5.03,JP,1706635921
237,sosnovo-ozerskoye,52.5249,111.5418,-32.51,100,69,2.71,RU,1706635922
238,ust-nera,64.5667,143.2,-32.12,100,99,2.01,RU,1706635923
239,ceeldheer,3.8488,47.1806,77.67,77,64,18.41,SO,1706635923
240,charlottetown,46.2352,-63.1267,22.77,71,100,18.41,CA,1706635925
241,tshabong,-26.05,22.45,83.32,44,90,6.91,BW,1706635925
242,frutal,-20.0247,-48.9406,96.93,17,65,9.89,BR,1706635926
243,caleta de carquin,-11.0925,-77.6267,79.36,73,86,12.75,PE,1706635926
244,'ahuimanu,21.4447,-157.8378,73.11,94,75,0.0,US,1706635927
245,portsmouth,50.799,-1.0913,47.21,79,100,1.99,GB,1706635721
246,buritizeiro,-17.3511,-44.9622,84.85,63,100,1.59,BR,1706635928
247,lander,42.833,-108.7307,54.19,72,0,4.61,US,1706635814
248,new norfolk,-42.7826,147.0587,60.3,82,67,3.51,AU,1706635929
249,vernon,50.2581,-119.2691,45.3,95,100,6.91,CA,1706635861
250,magadan,59.5667,150.8,-14.22,85,48,6.31,RU,1706635931
251,bengkulu,-3.8004,102.2655,76.73,91,100,3.71,ID,1706635931
252,gemena,3.25,19.7667,81.19,33,97,2.66,CD,1706635932
253,pyt-yakh,60.7499,72.8582,-2.34,97,88,7.47,RU,1706635932
254,choibalsan,48.0667,114.5,-20.49,94,8,9.51,MN,1706635933
255,kalmunai,7.4167,81.8167,77.74,87,22,5.3,LK,1706635934
256,nichinan,31.6,131.3667,49.68,86,98,1.39,JP,1706635934
257,sinabang,2.4803,96.3801,80.46,82,97,5.75,ID,1706635935
258,maragogi,-9.0122,-35.2225,85.66,56,10,9.55,BR,1706635935
259,planadas,3.197,-75.6451,84.63,58,95,3.15,CO,1706635936
260,lihue,21.9789,-159.3672,69.39,89,40,5.75,US,1706635937
261,poputnaya,44.5125,41.4392,21.67,90,10,4.36,RU,1706635938
262,albu kamal,34.45,40.9186,50.79,65,88,8.5,SY,1706635938
263,vila franca do campo,37.7167,-25.4333,64.89,99,25,5.97,PT,1706635939
264,broome,42.2506,-75.833,30.7,91,100,5.75,US,1706635940
265,oranjemund,-28.55,16.4333,66.63,89,39,10.87,NA,1706635941
266,kingston,17.997,-76.7936,85.15,58,20,8.05,JM,1706635935
267,ocean city,39.2776,-74.5746,42.03,64,70,3.0,US,1706635942
268,nadi,-17.8,177.4167,78.8,89,75,5.75,FJ,1706635943
269,odesskoye,54.2111,72.9651,-8.57,100,99,4.79,RU,1706635943
270,harper,4.375,-7.7169,83.48,75,10,10.2,LR,1706635944
271,coquimbo,-29.9533,-71.3436,65.93,82,75,9.22,CL,1706635945
272,ola,59.5833,151.2833,-14.4,86,69,7.76,RU,1706635945
273,mursko sredisce,46.5094,16.4411,32.95,42,22,4.92,HR,1706635946
274,kirensk,57.7853,108.1119,-36.04,100,42,1.99,RU,1706635947
275,mount isa,-20.7333,139.5,78.57,89,75,10.36,AU,1706635948
276,ortaca,36.8294,28.7708,44.4,65,75,3.44,TR,1706635948
277,hammerfest,70.6634,23.6821,37.85,93,75,31.07,NO,1706635949
278,lumphat,13.4878,106.9816,72.63,72,83,6.22,KH,1706635949
279,goonellabah,-28.8167,153.3167,69.82,99,98,2.44,AU,1706635950
280,usinsk,65.9939,57.5281,18.07,96,100,8.99,RU,1706635951
281,kenora,49.8167,-94.4337,31.17,93,100,8.05,CA,1706635951
282,gaalkacyo,6.7697,47.4308,75.83,66,94,19.66,SO,1706635952
283,pisco,-13.7,-76.2167,83.01,78,0,9.22,PE,1706635953
284,island harbour,50.724,-1.2758,47.32,79,100,3.04,GB,1706635953
285,aasiaat,68.7098,-52.8699,-27.33,99,84,8.9,GL,1706635954
286,port-gentil,-0.7193,8.7815,84.16,84,40,6.91,GA,1706635955
287,peace river,56.2501,-117.286,43.66,85,75,19.57,CA,1706635956
288,brak,27.5496,14.2714,53.33,39,6,11.18,LY,1706635956
289,lichinga,-13.3128,35.2406,62.49,76,65,3.0,MZ,1706635957
290,nar'yan-mar,67.6713,53.087,27.1,93,98,15.01,RU,1706635957
291,sandnessjoen,66.0217,12.6316,41.41,65,75,29.93,NO,1706635958
292,sona,45.4388,10.8255,44.94,93,68,2.3,IT,1706635958
293,santa marta,11.2408,-74.199,86.05,75,20,9.22,CO,1706635778
294,kapuskasing,49.4169,-82.4331,33.89,86,100,11.5,CA,1706635959
295,zalingei,12.9096,23.4741,74.84,15,0,4.7,SD,1706635960
296,dangriga,16.9692,-88.2321,75.47,54,38,7.9,BZ,1706635961
297,afaahiti,-17.75,-149.2833,78.67,79,96,2.35,PF,1706635961
298,mengcheng chengguanzhen,33.2661,116.566,44.71,91,100,5.12,CN,1706635962
299,nova olinda do norte,-3.8881,-59.0942,91.09,53,81,4.61,BR,1706635962
300,praia da vitoria,38.7333,-27.0667,65.75,77,40,10.69,PT,1706635834
301,glasgow,55.8652,-4.2576,44.31,88,62,8.05,GB,1706635384
302,lorengau,-2.0226,147.2712,81.57,82,90,9.31,PG,1706635964
303,kismayo,-0.3582,42.5454,80.65,84,83,14.34,SO,1706635964
304,mawlaik,23.6333,94.4167,58.17,57,83,1.7,MM,1706635965
305,kencong,-8.2833,113.3667,76.42,91,96,3.31,ID,1706635965
306,murzuq,25.9155,13.9184,52.77,38,0,10.27,LY,1706635966
307,dunedin,-45.8742,170.5036,56.8,86,29,7.0,NZ,1706635966
308,portland,45.5234,-122.6762,54.57,85,100,11.01,US,1706635808
309,kankanhalli,12.55,77.4167,70.75,46,74,5.66,IN,1706635967
310,lethem,3.3803,-59.7968,97.9,36,63,9.84,GY,1706635968
311,necochea,-38.5473,-58.7368,84.11,49,21,16.2,AR,1706635969
312,votkinsk,57.0486,53.9872,27.77,97,99,11.01,RU,1706635969
313,hays,30.0502,-98.0336,68.79,39,98,5.12,US,1706635970
314,cabo san lucas,22.8909,-109.9124,84.51,39,40,19.57,MX,1706635799
315,lillehammer,61.1146,10.4674,16.43,95,100,4.45,NO,1706635971
316,queenstown,-31.8976,26.8753,68.5,81,81,2.48,ZA,1706635775
317,lubango,-14.9172,13.4925,76.86,57,99,5.75,AO,1706635794
318,tralee,52.2704,-9.7026,46.65,71,75,3.44,IE,1706635972
319,luanda,-8.8368,13.2343,84.2,81,75,9.22,AO,1706635973
320,den burg,53.0542,4.7972,44.94,90,75,14.97,NL,1706635973
321,ust'-barguzin,53.45,108.9833,-23.78,97,66,4.03,RU,1706635974
322,vera cruz,-12.6333,-41.0333,89.17,35,16,5.79,BR,1706635974
323,gibara,21.1097,-76.1317,76.32,53,78,8.81,CU,1706635975
324,san salvador de jujuy,-24.1946,-65.2971,89.13,33,1,6.4,AR,1706635862
325,sao benedito do rio preto,-3.3336,-43.5283,92.39,46,48,1.32,BR,1706635976
326,guerrero negro,27.9769,-114.0611,70.25,39,1,4.52,MX,1706635976
327,timbuktu,16.7735,-3.0074,79.29,11,0,10.0,ML,1706635977
328,roma,43.2128,-75.4557,31.82,85,100,8.05,US,1706635977
329,kenzhe,43.5017,43.5572,20.19,93,100,2.24,RU,1706635978
330,fada,9.5667,8.3,82.09,20,54,4.18,NG,1706635978
331,nova sintra,14.8667,-24.7167,70.41,64,12,15.73,CV,1706635979
332,garachico,28.7781,-17.7646,66.31,73,0,3.44,ES,1706635979
333,xichang,27.8964,102.2634,41.45,61,5,2.95,CN,1706635980
334,acapulco de juarez,16.8634,-99.8901,84.02,54,75,6.91,MX,1706635980
335,milton,34.1322,-84.3007,53.89,61,13,2.44,US,1706635501
336,punta cana,18.5818,-68.4043,83.97,58,75,4.61,DO,1706635971
337,margate,51.3813,1.3862,46.9,87,100,4.0,GB,1706635401
338,palmer,42.1584,-72.3287,34.48,67,100,1.01,US,1706635982
339,tra vinh,9.9347,106.3453,74.75,87,58,8.14,VN,1706635983
340,san julian,21.0167,-102.1667,66.96,25,100,6.11,MX,1706635984
341,wanning,18.8003,110.3967,69.26,89,49,0.36,CN,1706635984
342,xiangcheng chengguanzhen,33.847,113.4778,39.47,75,1,1.88,CN,1706635985
343,acarau,-2.8856,-40.12,88.45,57,21,16.75,BR,1706635986
344,el bauga,18.262,33.9081,66.49,17,46,11.97,SD,1706635986
345,port moresby,-9.4431,147.1797,78.22,94,20,3.44,PG,1706635927
346,wotho,10.1657,166.0102,79.52,78,91,19.57,MH,1706635988
347,bosansko grahovo,44.1794,16.3639,32.99,60,2,3.85,BA,1706635989
348,paita,-5.0892,-81.1144,80.89,71,91,12.88,PE,1706635989
349,sweet home,44.3976,-122.7362,56.95,79,100,2.1,US,1706635990
350,chukhloma,58.7525,42.6825,27.09,88,7,8.01,RU,1706635990
351,santander,43.4647,-3.8044,56.46,93,20,8.05,ES,1706635722
352,agat village,13.3886,144.6585,79.36,77,40,16.11,GU,1706635992
353,villa gesell,-37.2639,-56.973,85.05,58,1,24.61,AR,1706635993
354,buala,-8.145,159.5921,77.04,95,100,15.23,SB,1706635993
355,san estanislao,10.3983,-75.1511,89.49,37,9,3.71,CO,1706635994
356,floro,61.5996,5.0328,35.56,80,20,10.36,NO,1706635994
357,hawkesbury,45.6001,-74.616,19.69,83,87,8.9,CA,1706635995
358,filadelfia,39.9523,-75.1638,39.97,67,100,3.44,US,1706635890
359,gazli,40.1333,63.45,32.72,64,99,8.61,UZ,1706635996
360,chabahar,25.2919,60.643,73.58,64,79,9.4,IR,1706635929
361,paragominas,-2.9667,-47.4833,88.34,58,84,5.32,BR,1706635997
362,nefta,33.8731,7.8777,62.85,48,7,3.15,TN,1706635998
363,klyuchi,52.2667,79.1667,0.79,94,51,6.93,RU,1706635999
364,bodaybo,57.8506,114.1933,-40.83,100,56,1.7,RU,1706635999
365,luganville,-15.5333,167.1667,78.82,88,95,3.38,VU,1706636000
366,kaya,13.0917,-1.0844,83.16,12,82,9.4,BF,1706636000
367,belmonte,-15.8631,-38.8828,85.05,67,59,11.18,BR,1706636001
368,sao tome,0.3365,6.7273,82.72,78,97,7.92,ST,1706635958
369,shantobe,52.4581,68.1839,-11.16,100,92,4.52,KZ,1706636002
370,san andres,12.5847,-81.7006,86.02,62,20,12.66,CO,1706636003
371,essaouira,31.5125,-9.77,78.3,23,100,3.44,MA,1706636003
372,mahanoro,-19.9,48.8,76.03,83,6,8.86,MG,1706636004
373,olinda,-8.0089,-34.8553,85.73,66,40,10.36,BR,1706636004
374,labrador city,52.9463,-66.9114,4.91,39,0,16.11,CA,1706636005
375,ufa,54.775,56.0375,21.94,93,100,10.0,RU,1706636005
376,qamdo,31.1667,97.2333,13.15,46,31,4.43,CN,1706636006
377,happy valley-goose bay,53.3168,-60.3315,3.51,43,20,17.27,CA,1706636007
378,galesong,-5.3166,119.3661,77.02,81,95,5.17,ID,1706636007
379,vadso,70.0744,29.7487,34.68,80,75,18.41,NO,1706636008
380,bandarbeyla,9.4942,50.8122,77.5,66,31,14.12,SO,1706636008
381,puerto ayacucho,5.6639,-67.6236,95.09,39,71,3.42,VE,1706636009
382,omachi,36.5,137.8667,30.33,66,3,3.91,JP,1706636009
383,gunjur,13.2019,-16.7339,93.27,15,0,10.36,GM,1706636010
384,lerwick,60.1545,-1.1494,44.6,81,67,28.54,GB,1706636011
385,porto murtinho,-21.6989,-57.8825,103.71,25,45,7.47,BR,1706636011
386,funafuti,-8.5243,179.1942,86.0,74,100,14.97,TV,1706636012
387,ciudad lazaro cardenas,17.9583,-102.2,82.72,61,100,2.93,MX,1706635748
388,ishikawa,26.4233,127.8214,72.34,73,75,6.91,JP,1706636014
389,ribeira grande,38.5167,-28.7,65.77,72,20,14.97,PT,1706636015
390,antsiranana,-12.2787,49.2917,77.7,86,16,5.5,MG,1706636015
391,beloomut,54.9448,39.3394,32.14,98,100,4.5,RU,1706636016
392,dauphin,51.1494,-100.0502,39.34,75,0,14.97,CA,1706636016
393,aykhal,66.0,111.5,-14.04,100,89,3.42,RU,1706636017
394,caconda,-13.7333,15.0667,61.02,93,92,8.25,AO,1706636017
395,weno,7.4515,151.8468,81.7,69,100,19.35,FM,1706636018
396,avarua,-21.2078,-159.775,75.25,94,20,1.14,CK,1706636019
397,vicosa,-20.7539,-42.8819,80.49,67,22,3.02,BR,1706636019
398,boca do acre,-8.7522,-67.3978,85.75,78,74,3.65,BR,1706636020
399,bonthe,7.5264,-12.505,83.62,66,51,12.21,SL,1706636021
400,nemuro,43.3236,145.575,28.78,66,90,12.57,JP,1706636021
401,ankazobe,-18.3167,47.1167,66.65,83,76,3.65,MG,1706636022
402,leninsk,48.7119,45.1994,28.87,87,100,13.89,RU,1706636022
403,savanna-la-mar,18.219,-78.1332,76.93,67,72,10.56,JM,1706636023
404,ghumarwin,31.45,76.7167,53.11,52,78,2.44,IN,1706636023
405,pittsburg,38.028,-121.8847,59.45,84,0,0.0,US,1706636024
406,hovd,48.0056,91.6419,-7.11,94,18,0.36,MN,1706636024
407,sirohi,24.8833,72.8667,62.96,43,100,2.19,IN,1706636025
408,anapa,44.8908,37.3239,26.94,93,0,8.95,RU,1706636025
409,astaneh-ye ashrafiyeh,37.2596,49.9444,42.73,95,100,2.98,IR,1706636026
410,suva,-18.1416,178.4415,76.48,100,75,3.44,FJ,1706636027
411,touros,-5.1989,-35.4608,86.31,63,15,17.43,BR,1706636027
412,marsa alam,25.0757,34.8918,63.12,46,0,9.8,EG,1706636028
413,sabang,5.8933,95.3214,82.17,77,40,14.16,ID,1706636028
414,ursulo galvan,22.7333,-98.3,71.33,68,100,3.85,MX,1706636029
415,mirnyy,62.5353,113.9611,-22.77,67,65,1.99,RU,1706636029
416,uaua,-9.8414,-39.4817,93.18,29,2,6.2,BR,1706636029
417,qala i naw,34.9874,63.1289,36.91,95,100,4.5,AF,1706636030
418,m'sila,35.7058,4.5419,56.55,60,100,7.47,DZ,1706636031
419,rabaul,-4.1967,152.1721,80.53,76,100,5.14,PG,1706636031
420,kudahuvadhoo,2.6708,72.8944,81.27,81,31,12.59,MV,1706636032
421,bueno brandao,-22.4408,-46.3508,81.72,38,25,6.35,BR,1706636032
422,tidjikja,18.5564,-11.4271,78.58,7,0,11.52,MR,1706636033
423,soanierana ivongo,-16.9167,49.5833,77.14,83,23,8.61,MG,1706636033
424,anshun,26.25,105.9333,47.5,98,90,3.8,CN,1706636034
425,artsyz,45.9919,29.4182,33.67,68,4,2.59,UA,1706636034
426,katsuura,35.1333,140.3,51.04,66,71,6.76,JP,1706636035
427,chonchi,-42.6128,-73.8092,72.61,44,4,2.91,CL,1706636035
428,gobabis,-22.45,18.9667,79.68,41,80,5.44,NA,1706636036
429,al jahra',29.3375,47.6581,61.63,45,0,5.37,KW,1706636036
430,severnoye,56.3491,78.3619,10.98,93,100,7.0,RU,1706636037
431,along,28.1667,94.7667,49.62,92,62,1.72,IN,1706636037
432,port douglas,-16.4833,145.4667,81.93,85,97,6.49,AU,1706636038
433,ocean shores,46.9737,-124.1563,53.6,94,100,5.99,US,1706635469
434,kattivakkam,13.2167,80.3167,78.89,76,15,7.76,IN,1706636039
435,persembe,41.0656,37.7714,42.22,89,94,0.22,TR,1706636040
436,lamu,-2.2717,40.902,82.62,84,91,13.6,KE,1706636040
437,hazard,37.2495,-83.1932,46.09,42,98,7.92,US,1706636041
438,manismata,-2.4667,111.0333,74.53,99,100,2.04,ID,1706636041
439,kirakira,-10.4544,161.9205,78.66,88,100,9.62,SB,1706636042
440,vanino,49.0869,140.2543,-0.08,72,48,7.92,RU,1706636042
441,ondjiva,-17.0667,15.7333,77.04,65,0,3.44,AO,1706636043
442,turaif,31.6725,38.6637,46.65,42,40,10.36,SA,1706636044
443,san luis de la loma,17.2706,-100.8939,84.25,59,100,6.17,MX,1706636045
444,chinde,26.8418,88.0763,44.91,59,29,5.84,NP,1706636045
445,kropyvnytskyi,48.5132,32.2597,32.23,72,19,5.99,UA,1706636046
446,petawawa,45.9001,-77.3328,26.58,84,100,10.36,CA,1706636046
447,egilsstadir,65.2653,-14.3948,33.71,51,0,8.05,IS,1706636047
448,fort mcmurray,56.7268,-111.381,36.91,80,100,4.61,CA,1706636003
449,oruro,-17.9833,-67.15,63.14,34,74,5.44,BO,1706636048
450,tirumullaivasal,11.2333,79.8333,76.8,80,25,10.09,IN,1706636049
451,dakhla,23.6848,-15.958,71.62,68,0,14.97,EH,1706636050
452,mount gambier,-37.8333,140.7667,51.78,89,5,5.23,AU,1706635863
453,enriquillo,17.9,-71.2333,89.28,67,23,7.72,DO,1706636051
454,abbadia san salvatore,42.8821,11.6695,41.85,50,23,1.14,IT,1706636052
455,lampazos de naranjo,27.0167,-100.5167,66.7,38,100,2.71,MX,1706636052
456,belyy yar,53.6039,91.3903,-14.91,84,91,0.0,RU,1706636053
457,beloyarskiy,63.7119,66.6722,5.0,93,100,8.99,RU,1706636053
458,rundu,-17.9333,19.7667,76.89,56,64,3.29,NA,1706636054
459,kargasok,59.0556,80.8572,2.34,96,97,10.51,RU,1706636054
460,port blair,11.6667,92.75,78.84,89,20,2.3,IN,1706636055
461,urangan,-25.3,152.9,77.2,98,100,5.99,AU,1706636056
462,changtu,42.7788,124.0955,11.07,95,100,10.85,CN,1706636056
463,kerikeri,-35.2268,173.9474,62.91,89,13,5.21,NZ,1706636057
464,davutlar,37.733,27.2944,49.42,64,89,13.35,TR,1706636058
465,khorostkiv,49.2111,25.9217,21.49,93,24,4.56,UA,1706636058
466,flying fish cove,-10.4217,105.6791,76.68,94,100,6.91,CX,1706636059
467,sao vicente,-23.9631,-46.3919,96.98,45,40,5.75,BR,1706636059
468,keetmanshoop,-26.5833,18.1333,95.92,15,21,5.75,NA,1706636060
469,tokmok,42.8417,75.3016,29.23,96,100,0.83,KG,1706636060
470,veraval,20.9,70.3667,72.21,81,47,10.25,IN,1706636061
471,tsiombe,-25.3,45.4833,73.9,71,16,17.07,MG,1706636062
472,chinsali,-10.5414,32.0816,64.49,95,58,2.06,ZM,1706636062
473,lagos,6.5833,3.75,89.92,53,47,9.22,NG,1706635776
474,qax,41.4225,46.9242,32.99,72,89,5.53,AZ,1706636063
475,whangarei,-35.7317,174.3239,61.11,98,8,3.74,NZ,1706636064
476,grand falls-windsor,48.9332,-55.6649,13.5,78,100,1.99,CA,1706636065
477,codrington,-38.2667,141.9667,56.35,78,19,8.77,AU,1706636066
478,lianzhou,24.7811,112.3825,58.23,99,100,1.32,CN,1706636066
479,buta,2.7858,24.73,80.49,34,97,2.13,CD,1706636067
480,la'ie,21.6477,-157.9253,73.36,96,10,1.99,US,1706636067
481,cudillero,43.5622,-6.1459,60.39,80,0,5.75,ES,1706636068
482,cockburn town,21.4612,-71.1419,74.14,62,61,16.82,TC,1706636068
483,kill devil hills,36.0307,-75.676,48.2,68,100,8.05,US,1706636069
484,beacon square,28.2086,-82.7554,65.21,55,12,3.0,US,1706636070
485,hoa binh,20.8133,105.3383,65.55,90,93,1.03,VN,1706636071
486,wum,6.3833,10.0667,78.3,26,30,2.84,CM,1706636071
487,mao,39.8885,4.2658,55.96,76,40,5.75,ES,1706636072
488,ulladulla,-35.35,150.4667,71.76,92,88,5.39,AU,1706636073
489,arendal,58.4615,8.7725,37.2,97,100,4.92,NO,1706636074
490,mossel bay,-34.1831,22.146,69.73,87,100,13.78,ZA,1706636074
491,monrovia,6.3005,-10.7969,87.57,73,85,12.26,LR,1706636075
492,bengbu,32.9408,117.3608,47.3,85,100,4.63,CN,1706636076
493,el calafate,-50.3408,-72.2768,58.73,66,99,8.99,AR,1706636076
494,camocim,-2.9022,-40.8411,88.61,59,7,18.19,BR,1706636077
495,maloye ganyushkino,46.6,49.2667,26.85,89,100,17.78,KZ,1706636078
496,tera,14.0078,0.7531,81.95,13,50,9.48,NE,1706636078
497,mahina,-17.5065,-149.489,80.37,89,75,4.61,PF,1706636079
498,general conesa,-40.1,-64.4333,99.52,17,44,7.76,AR,1706636079
499,rokytne,51.2796,27.214,31.01,76,43,6.82,UA,1706636080
500,tra mhor,52.1624,-7.1524,43.09,80,20,3.44,IE,1706636081
501,wotje,9.4543,170.2367,79.99,80,100,22.46,MH,1706636081
502,xiongzhou,25.1167,114.3,60.6,95,100,3.0,CN,1706636081
503,yeraliyev,43.2,51.65,30.72,62,36,9.06,KZ,1706636082
504,karachi,24.9056,67.0822,75.02,73,75,8.05,PK,1706635893
505,itogon,16.3167,120.7333,60.21,89,12,6.78,PH,1706636083
506,likisa,-8.6695,125.6875,68.0,86,100,2.39,TL,1706636084
507,santyoku,37.4406,129.1708,37.81,51,36,6.29,KR,1706636084
508,santa cruz,-17.8,-63.1667,93.25,52,20,16.11,BO,1706635805
509,kapa'a,22.0752,-159.319,70.12,85,40,5.75,US,1706636085
510,san juan bautista,-14.0108,-75.7358,89.89,41,97,5.32,PE,1706636086
511,coevorden,52.661,6.7405,47.08,82,100,16.84,NL,1706636086
512,tataouine,32.9297,10.4518,55.49,60,1,10.58,TN,1706636087
513,owen sound,44.5672,-80.9435,35.33,93,100,3.0,CA,1706635988
514,tadine,-21.55,167.8833,74.79,75,80,8.57,NC,1706636088
515,hami,42.8,93.45,23.49,54,92,4.18,CN,1706636089
516,newberry,34.2746,-81.6187,55.35,51,44,5.68,US,1706635900
517,urzhar,47.093,81.6294,16.0,95,100,2.66,KZ,1706636090
518,katerini,40.2719,22.5025,41.97,52,7,7.16,GR,1706636090
519,kilifi,-3.6305,39.8499,80.49,81,98,9.75,KE,1706636091
520,beohari,24.05,81.3833,58.78,48,89,4.81,IN,1706636091
521,dzhetygara,52.1908,61.2006,2.34,100,60,6.2,KZ,1706636092
522,port saint john's,-31.6229,29.5448,74.95,89,98,4.92,ZA,1706636092
523,malango,-2.9627,119.9001,69.75,98,100,1.86,ID,1706636093
524,ust'-ilimsk,58.0006,102.6619,-29.56,100,7,3.0,RU,1706636050
525,fort st. john,56.2499,-120.8529,46.29,49,40,28.77,CA,1706636093
526,tisul',55.7611,88.3122,-6.86,99,91,3.06,RU,1706636094
527,sejenane,37.0572,9.2381,56.35,80,38,8.66,TN,1706636094
528,mana,5.6592,-53.7767,83.86,67,65,11.77,GF,1706636095
529,port alberni,49.2413,-124.8028,49.84,90,99,1.7,CA,1706636095
530,el granada,37.5027,-122.4694,63.48,78,100,6.91,US,1706636096
531,puerto aysen,-45.4,-72.7,59.94,90,95,4.72,CL,1706636096
532,lae,-6.7221,146.9847,78.33,89,100,4.12,PG,1706636097
533,el nido,11.1858,119.3956,78.46,77,52,8.28,PH,1706636097
534,rio de janeiro,-22.9028,-43.2075,95.54,75,20,20.71,BR,1706635809
535,pospelikha,51.95,81.7667,-7.92,100,74,3.94,RU,1706636098
536,filipstad,59.7124,14.1683,33.69,100,100,1.41,SE,1706636099
537,revda,56.801,59.9303,18.93,93,100,10.04,RU,1706636099
538,strezhevoy,60.7333,77.5889,-8.03,99,71,8.01,RU,1706636100
539,taro,-8.3862,115.28,75.2,92,96,1.14,ID,1706636101
540,mundri,-6.9558,111.71,74.95,97,100,3.13,ID,1706636102
541,verkhov'ye,52.8119,37.2425,25.25,94,100,7.29,RU,1706636103
542,hotan,37.0997,79.9269,29.62,51,75,4.68,CN,1706636103
543,jacmel,18.2342,-72.5347,84.04,60,6,9.01,HT,1706636104
544,lufilufi,-13.8745,-171.5986,78.58,70,90,13.76,WS,1706636105
545,tongchuanshi,35.0806,109.0897,34.16,74,2,3.85,CN,1706636106
546,eyl,7.9803,49.8164,76.39,76,52,17.67,SO,1706636106
547,huilong,31.8111,121.655,47.21,98,100,4.68,CN,1706636108
548,rongelap,11.1635,166.8941,78.91,76,100,21.54,MH,1706636108
549,karaikkudi,10.0667,78.7833,76.15,77,45,9.22,IN,1706636109
550,bubaque,11.2833,-15.8333,78.8,64,59,11.83,GW,1706636110
551,olyokminsk,60.3736,120.4264,-37.73,100,38,3.27,RU,1706636110
552,wladyslawowo,54.7909,18.4009,38.93,76,100,8.19,PL,1706636111
553,krasnoarmeysk,51.0239,45.6969,30.07,93,97,14.18,RU,1706636111
554,murak,35.3763,36.6896,44.35,92,99,7.74,SY,1706636112
555,linxia chengguanzhen,35.6003,103.2064,28.58,41,83,1.05,CN,1706636112
556,shakawe,-18.3667,21.85,76.66,59,75,7.27,BW,1706636113
557,ongwediva,-17.7833,15.7667,84.16,30,48,6.71,NA,1706636114
558,cabanas,22.9758,-82.9219,70.95,50,82,9.75,CU,1706636115
559,chapaev,50.2,51.1667,26.67,96,100,13.58,KZ,1706636116
560,san antonio de pale,-1.4014,5.6325,81.84,78,97,5.7,GQ,1706636116
561,lautoka,-17.6167,177.4667,78.66,89,75,5.75,FJ,1706636117
562,zafarwal,32.3463,74.8999,57.63,59,90,5.12,PK,1706636117
563,dapaong,10.8639,0.205,87.66,12,74,7.38,TG,1706636118
564,paszto,47.9202,19.6983,32.56,85,14,2.01,HU,1706636119
565,kwadukuza,-29.3282,31.2895,78.69,93,41,5.99,ZA,1706636120
566,springfield,37.2153,-93.2982,55.22,60,0,8.99,US,1706636072
567,sechura,-5.5569,-80.8222,85.21,61,81,14.47,PE,1706636121
568,nagqu,31.5,92.0,9.91,38,68,2.46,CN,1706636121
569,plunge,55.9114,21.8442,36.19,87,100,6.76,LT,1706636122
570,mohr,54.3528,9.7167,46.96,88,75,16.11,DE,1706636123
571,amboasary,-25.0333,46.3833,73.67,77,1,14.52,MG,1706636123
572,zeya,53.75,127.2667,-22.52,99,63,2.89,RU,1706636124
573,kyshtovka,56.555,76.6271,10.35,97,100,3.0,RU,1706636124
574,noshiro,40.2039,140.0242,34.57,91,97,5.08,JP,1706636125
575,bells corners,45.3159,-75.8301,23.38,71,75,16.11,CA,1706636126
576,nejo,9.5,35.5,67.8,49,100,2.91,ET,1706636127
577,puerto santa,-8.9906,-78.6456,79.47,74,80,12.15,PE,1706636128
578,las veredas,23.1388,-109.7075,84.15,55,40,4.61,MX,1706636128
579,gimcheon,36.1218,128.1198,31.32,74,100,2.3,KR,1706636129
580,mazagao,-0.115,-51.2894,86.05,54,86,5.37,BR,1706636129
581,ashland,40.8167,-82.2665,36.99,94,100,12.15,US,1706636082
582,qandala,11.472,49.8728,76.96,79,18,4.99,SO,1706636088
